[
{
  "pk": 1,
  "model": "events.event",
  "fields": {
    "end": "2014-05-14T06:00:00",
    "description": "",
    "title": "Awesome Firefox presentation",
    "created": "2014-05-14T05:45:37",
    "modified": "2014-05-14T07:25:30",
    "start": "2014-05-14T03:00:00",
    "areas": [2],
    "slug": "awesome-firefox-presentation",
    "space": 2
  }
},
{
  "pk": 2,
  "model": "events.event",
  "fields": {
    "end": "2014-05-14T17:00:00",
    "description": "",
    "title": "Awesome Firefox presentation",
    "created": "2014-05-14T07:50:11",
    "modified": "2014-05-14T07:50:11",
    "start": "2014-05-14T15:00:00",
    "areas": [1, 3],
    "slug": "awesome-firefox-presentation-1",
    "space": 3
  }
},
{
  "pk": 1,
  "model": "events.functionalarea",
  "fields": {
    "name": "Quality Assurance",
    "slug": "quality-assurance"
  }
},
{
  "pk": 2,
  "model": "events.functionalarea",
  "fields": {
    "name": "Localization",
    "slug": "localization"
  }
},
{
  "pk": 3,
  "model": "events.functionalarea",
  "fields": {
    "name": "Accessibility",
    "slug": "accessibility"
  }
},
{
  "pk": 1,
  "model": "events.space",
  "fields": {
    "name": "Mountain View",
    "slug": "moutain-view",
    "address": "331 E. Evelyn Avenue",
    "city": "Mountain View",
    "country": "USA",
    "postal_code": "94041",
    "lat": 37.3874349,
    "lon": -122.0609917
  }
},
{
  "pk": 2,
  "model": "events.space",
  "fields": {
    "name": "London",
    "slug": "london",
    "address": "101 St Martin's Lane, 3rd Floor",
    "city": "London",
    "country": "UK",
    "postal_code": "WC2N 4AZ",
    "lat": 51.51045,
    "lon": -0.127497
  }
},
{
  "pk": 3,
  "model": "events.space",
  "fields": {
    "name": "Paris",
    "slug": "paris",
    "address": "16 Bis Boulevard Montmartre",
    "city": "Paris",
    "country": "FR",
    "postal_code": "75009",
    "lat": 48.8721388,
    "lon": 2.3411542
  }
}
]
